55.98469,E,112655.000,A,A*4E
$GPGSA,A,3,14,17,28,194,199,,,,,,,,5.3,4.3,3.2*36
$BDGSA,A,3,07,33,34,40,59,,,,,,,,5.3,4.3,3.2*2B
$GPGSV,3,1,12,02,42,324,,05,31,230,,06,45,017,,09,26,069,*7C
$GPGSV,3,2,12,12,31,301,,14,08,165,10,17,44,112,21,19,61,084,*72
$GPGSV,3,3,12,28,16,170,20,193,58,097,04,194,21,168,16,199,60,149,25*44
$BDGSV,3,1,09,07,45,183,26,10,59,223,,11,51,066,,12,13,107,*66
$BDGSV,3,2,09,14,78,109,,33,60,193,34,34,35,094,20,40,61,202,32*64
$BDGSV,3,3,09,59,50,130,32*5B
$GNRMC,112655.000,A,2234.44146,N,11355.98469,E,0.00,280.90,160421,,,A*7A
$GNVTG,280.90,T,,M,0.00,N,0.00,K,A*20
$GNZDA,112655.000,16,04,2021,00,00*4E
$GPTXT,01,01,01,ANTENNA OPEN*25
$GNGGA,112656.000,2234.44133,N,11355.98468,E,1,10,4.3,25.8,M,0.0,M,,*42
$GNGLL,2234.44133,N,11355.98468,E,112656.000,A,A*4E
$GPGSA,A,3,14,17,28,194,199,,,,,,,,5.3,4.3,3.2*36
$BDGSA,A,3,07,33,34,40,59,,,,,,,,5.3,4.3,3.2*2B
$GPGSV,3,1,12,02,42,324,,05,31,230,,06,45,017,,09,26,069,*7C
$GPGSV,3,2,12,12,31,301,,14,08,165,10,17,44,112,21,19,61,084,*72
$GPGSV,3,3,12,28,16,170,20,193,58,097,,194,21,168,16,199,60,149,25*40
$BDGSV,3,1,09,07,45,183,26,10,59,223,,11,51,066,,12,13,108,*69
$BDGSV,3,2,09,14,78,109,,33,60,193,34,34,35,094,20,40,61,202,32*64
$BDGSV,3,3,09,59,50,130,32*5B
$GNRMC,112656.000,A,2234.44133,N,11355.98468,E,0.00,280.90,160421,,,A*7A
$GNVTG,280.90,T,,M,0.00,N,0.00,K,A*20
$GNZDA,112656.000,16,04,2021,00,00*4D
$GPTXT,01,01,01,ANTENNA OPEN*25
$GNGGA,112657.000,2234.44115,N,11355.98466,E,1,10,4.3,26.0,M,0.0,M,,*42
$GNGLL,2234.44115,N,11355.98466,E,112657.000,A,A*45
$GPGSA,A,3,14,17,28,194,199,,,,,,,,5.3,4.3,3.2*36
$BDGSA,A,3,07,33,34,40,59,,,,,,,,5.3,4.3,3.2*2B
$GPGSV,3,1,12,02,42,324,,05,31,230,,06,45,017,,09,26,069,*7C
$GPGSV,3,2,12,12,31,301,,14,08,165,10,17,43,112,21,19,61,084,*75
$GPGSV,3,3,12,28,16,170,20,193,58,097,,194,21,168,16,199,60,149,25*40
$BDGSV,3,1,09,07,45,183,26,10,59,223,,11,51,066,,12,13,108,*69
$BDGSV,3,2,09,14,78,109,,33,60,193,34,34,35,094,19,40,61,202,33*6F
$BDGSV,3,3,09,59,50,130,32*5B
$GNRMC,112657.000,A,2234.44115,N,11355.98466,E,0.00,280.90,160421,,,A*71
$GNVTG,280.90,T,,M,0.00,N,0.00,K,A*20
$GNZDA,112657.000,16,04,2021,00,00*4C
$GPTXT,01,01,01,ANTENNA OPEN*25
$GNGGA,112658.000,2234.44096,N,11355.98464,E,1,10,4.3,26.2,M,0.0,M,,*47
$GNGLL,2234.44096,N,11355.98464,E,112658.000,A,A*42
$GPGSA,A,3,14,17,28,194,199,,,,,,,,5.3,4.3,3.2*36
$BDGSA,A,3,07,33,34,40,59,,,,,,,,5.3,4.3,3.2*2B
$GPGSV,3,1,12,02,42,324,,05,31,230,,06,45,017,,09,26,069,*7C
$GPGSV,3,2,12,12,31,301,,14,08,165,10,17,43,112,21,19,61,085,*74
$GPGSV,3,3,12,28,16,170,20,193,58,097,,194,21,168,16,199,60,149,25*40
$BDGSV,3,1,09,07,45,183,26,10,59,223,,11,51,066,,12,13,108,*69
$BDGSV,3,2,09,14,78,109,,33,60,193,34,34,35,094,19,40,61,202,33*6F
$BDGSV,3,3,09,59,50,130,32*5B
$GNRMC,112658.000,A,2234.44096,N,11355.98464,E,0.00,280.90,160421,,,A*76
$GNVTG,280.90,T,,M,0.00,N,0.00,K,A*20
$GNZDA,112658.000,16,04,2021,00,00*43
$GPTXT,01,01,01,ANTENNA OPEN*25
$GNGGA,112659.000,2234.44080,N,11355.98460,E,1,10,4.3,26.5,M,0.0,M,,*42
$GNGLL,2234.44080,N,11355.98460,E,112659.000,A,A*40
$GPGSA,A,3,14,17,28,194,199,,,,,,,,5.3,4.3,3.2*36
$BDGSA,A,3,07,33,34,40,59,,,,,,,,5.3,4.3,3.2*2B
$GPGSV,3,1,12,02,42,324,,05,31,230,,06,45,017,,09,26,069,*7C
$GPGSV,3,2,12,12,31,301,,14,08,165,10,17,43,112,21,19,61,085,*74
$GPGSV,3,3,12,28,16,170,17,193,58,097,,194,21,168,16,199,60,149,25*44
$BDGSV,3,1,09,07,45,183,26,10,59,223,,11,51,066,,12,13,108,*69
$BDGSV,3,2,09,14,78,109,,33,60,193,34,34,35,094,19,40,61,202,33*6F
$BDGSV,3,3,09,59,50,130,32*5B
$GNRMC,112659.000,A,2234.44080,N,11355.98460,E,0.00,280.90,160421,,,A*74
$GNVTG,280.90,T,,M,0.00,N,0.00,K,A*20
$GNZDA,112659.000,16,04,2021,00,00*42
$GPTXT,01,01,01,ANTENNA OPEN*25
$GNGGA,112700.000,2234.44066,N,11355.98454,E,1,10,4.3,26.7,M,0.0,M,,*42
$GNGLL,2234.44066,N,11355.98454,E,112700.000,A,A*42
$GPGSA,A,3,14,17,28,194,199,,,,,,,,5.3,4.3,3.2*36
$BDGSA,A,3,07,33,34,40,59,,,,,,,,5.3,4.3,3.2*2B
$GPGSV,3,1,12,02,42,324,,05,31,230,,06,45,017,,09,26,069,*7C
$GPGSV,3,2,12,12,31,301,,14,08,165,10,17,43,112,21,19,61,085,*74
$GPGSV,3,3,12,28,16,170,17,193,58,097,,194,21,168,16,199,60,149,25*44
$BDGSV,3,1,09,07,45,183,26,10,59,223,,11,51,066,,12,13,108,*69
$BDGSV,3,2,09,14,78,109,,33,60,193,34,34,35,094,19,40,61,202,33*6F
$BDGSV,3,3,09,59,50,130,32*5B
$GNRMC,112700.000,A,2234.44066,N,11355.98454,E,0.00,280.90,160421,,,A*76
$GNVTG,280.90,T,,M,0.00,N,0.00,K,A*20
$GNZDA,112700.000,16,04,2021,00,00*4F
$GPTXT,01,01,01,ANTENNA OPEN*25
$GNGGA,112701.000,2234.44054,N,11355.98446,E,1,10,4.3,26.9,M,0.0,M,,*4F
$GNGLL,2234.44054,N,11355.98446,E,112701.000,A,A*41
$GPGSA,A,3,14,17,28,194,199,,,,,,,,5.3,4.3,3.2*36
$BDGSA,A,3,07,33,34,40,59,,,,,,,,5.3,4.3,3.2*2B
$GPGSV,3,1,12,02,42,324,,05,31,230,,06,45,017,,09,26,069,*7C
$GPGSV,3,2,12,12,31,301,,14,08,165,10,17,43,112,21,19,61,085,*74
$GPGSV,3,3,12,28,16,170,17,193,58,097,,194,21,168,16,199,60,149,25*44
$BDGSV,3,1,09,07,45,183,26,10,59,223,,11,51,066,,12,13,108,*69
$BDGSV,3,2,09,14,78,109,,33,60,193,34,34,35,094,19,40,61,202,33*6F
$BDGSV,3,3,09,59,50,130,32*5B
$GNRMC,112701.000,A,2234.44054,N,11355.98446,E,0.00,280.90,160421,,,A*75
$GNVTG,280.90,T,,M,0.00,N,0.00,K,A*20
$GNZDA,112701.000,16,04,2021,00,00*4E
$GPTXT,01,01,01,ANTENNA OPEN*25
$GNGGA,112702.000,2234.44038,N,11355.98441,E,1,10,4.3,27.2,M,0.0,M,,*4B
$GNGLL,2234.44038,N,11355.98441,E,112702.000,A,A*4F
$GPGSA,A,3,14,17,28,194,199,,,,,,,,5.3,4.3,3.2*36
$BDGSA,A,3,07,33,34,40,59,,,,,,,,5.3,4.3,3.2*2B
$GPGSV,3,1,12,02,42,324,,05,31,230,,06,45,017,,09,26,069,*7C
$GPGSV,3,2,12,12,31,301,,14,08,165,10,17,43,112,21,19,61,085,*74
$GPGSV,3,3,12,28,16,170,17,193,58,097,,194,21,168,16,199,60,149,25*44
$BDGSV,3,1,09,07,45,183,26,10,59,223,,11,51,066,,12,13,108,*69
$BDGSV,3,2,09,14,78,109,,33,60,193,34,34,35,094,19,40,61,202,33*6F
$BDGSV,3,3,09,59,50,130,32*5B
$GNRMC,112702.000,A,2234.44038,N,11355.98441,E,0.00,280.90,160421,,,A*7B
$GNVTG,280.90,T,,M,0.00,N,0.00,K,A*20
$GNZDA,112702.000,16,04,2021,00,00*4D
$GPTXT,01,01,01,ANTENNA OPEN*25
$GNGGA,112703.000,2234.44017,N,11355.98434,E,1,10,4.3,27.6,M,0.0,M,,*41
$GNGLL,2234.44017,N,11355.98434,E,112703.000,A,A*41
$GPGSA,A,3,14,17,28,194,199,,,,,,,,5.3,4.3,3.2*36
$BDGSA,A,3,07,33,34,40,59,,,,,,,,5.3,4.3,3.2*2B
$GPGSV,3,1,12,02,42,324,,05,31,230,,06,45,017,,09,26,069,*7C
$GPGSV,3,2,12,12,31,301,,14,08,165,10,17,43,112,21,19,61,085,*74
$GPGSV,3,3,12,28,16,170,10,193,58,097,,194,21,168,16,199,60,149,26*40
$BDGSV,3,1,09,07,45,183,26,10,59,223,,11,51,066,,12,13,108,*69
$BDGSV,3,2,09,14,78,109,,33,60,193,34,34,35,094,16,40,61,202,33*60
$BDGSV,3,3,09,59,50,130,32*5B
$GNRMC,112703.000,A,2234.44017,N,11355.98434,E,0.00,280.90,160421,,,A*75
$GNVTG,280.90,T,,M,0.00,N,0.00,K,A*20
$GNZDA,112703.000,16,04,2021,00,00*4C
$GPTXT,01,01,01,ANTENNA OPEN*25
$GNGGA,112704.000,2234.44006,N,11355.98435,E,1,10,4.3,28.0,M,0.0,M,,*4E
$GNGLL,2234.44006,N,11355.98435,E,112704.000,A,A*47
$GPGSA,A,3,14,17,28,194,199,,,,,,,,5.3,4.3,3.2*36
$BDGSA,A,3,07,33,34,40,59,,,,,,,,5.3,4.3,3.2*2B
$GPGSV,3,1,12,02,42,324,,05,31,230,,06,45,017,,09,26,069,*7C
$GPGSV,3,2,12,12,31,301,,14,08,165,10,17,43,112,21,19,61,085,*74
$GPGSV,3,3,12,28,16,170,10,193,58,097,,194,21,168,16,199,60,149,26*40
$BDGSV,3,1,09,07,45,183,26,10,59,223,,11,51,066,,12,13,108,*69
$BDGSV,3,2,09,14,78,109,,33,60,193,34,34,35,094,16,40,61,202,33*60
$BDGSV,3,3,09,59,50,130,32*5B
$GNRMC,112704.000,A,2234.44006,N,11355.98435,E,0.00,280.90,160421,,,A*73
$GNVTG,280.90,T,,M,0.00,N,0.00,K,A*20
$GNZDA,112704.000,16,04,2021,00,00*4B
$GPTXT,01,01,01,ANTENNA OPEN*25
$GNGGA,112705.000,2234.43992,N,11355.98433,E,1,10,4.3,28.3,M,0.0,M,,*49
$GNGLL,2234.43992,N,11355.98433,E,112705.000,A,A*43
$GPGSA,A,3,14,17,28,194,199,,,,,,,,5.3,4.3,3.2*36
$BDGSA,A,3,07,33,34,40,59,,,,,,,,5.3,4.3,3.2*2B
$GPGSV,3,1,12,02,42,324,,05,31,230,,06,45,017,,09,26,069,*7C
$GPGSV,3,2,12,12,31,301,,14,08,165,10,17,43,112,21,19,61,085,*74
$GPGSV,3,3,12,28,16,170,10,193,58,097,,194,21,168,15,199,60,149,26*43
$BDGSV,3,1,09,07,45,183,26,10,59,223,,11,51,066,,12,13,108,*69
$BDGSV,3,2,09,14,78,109,,33,60,193,34,34,35,094,16,40,61,202,33*60
$BDGSV,3,3,09,59,50,130,32*5B
$GNRMC,112705.000,A,2234.43992,N,11355.98433,E,0.00,280.90,160421,,,A*77
$GNVTG,280.90,T,,M,0.00,N,0.00,K,A*20
$GNZDA,112705.000,16,04,2021,00,00*4A
$GPTXT,01,01,01,ANTENNA OPEN*25
$GNGGA,112706.000,2234.43980,N,11355.98433,E,1,09,4.4,28.7,M,0.0,M,,*42
$GNGLL,2234.43980,N,11355.98433,E,112706.000,A,A*43
$GPGSA,A,3,17,28,194,199,,,,,,,,,5.6,4.4,3.5*36
$BDGSA,A,3,07,33,34,40,59,,,,,,,,5.6,4.4,3.5*2E
$GPGSV,3,1,12,02,42,324,,05,31,230,,06,45,017,,09,26,069,*7C
$GPGSV,3,2,12,12,31,301,,14,08,165,10,17,43,112,21,19,61,085,*74
$GPGSV,3,3,12,28,16,170,10,193,58,097,,194,21,168,15,199,60,149,26*43
$BDGSV,3,1,09,07,45,183,26,10,59,223,,11,51,066,,12,13,108,*69
$BDGSV,3,2,09,14,78,109,,33,60,193,34,34,35,094,16,40,61,202,33*60
$BDGSV,3,3,09,59,50,130,32*5B
$GNRMC,112706.000,A,2234.43980,N,11355.98433,E,0.00,280.90,160421,,,A*77
$GNVTG,280.90,T,,M,0.00,N,0.00,K,A*20
$GNZDA,112706.000,16,04,2021,00,00*49
$GPTXT,01,01,01,ANTENNA OPEN*25
$GNGGA,112707.000,2234.43966,N,11355.98433,E,1,09,4.4,29.0,M,0.0,M,,*4D
$GNGLL,2234.43966,N,11355.98433,E,112707.000,A,A*4A
$GPGSA,A,3,17,28,194,199,,,,,,,,,5.6,4.4,3.5*36
$BDGSA,A,3,07,33,34,40,59,,,,,,,,5.6,4.4,3.5*2E
$GPGSV,3,1,12,02,42,324,,05,31,230,,06,45,017,,09,26,069,*7C
$GPGSV,3,2,12,12,31,301,,14,08,165,10,17,43,112,21,19,61,085,*74
$GPGSV,3,3,12,28,16,170,10,193,58,097,,194,21,168,15,199,60,149,26*43
$BDGSV,3,1,09,07,45,183,26,10,59,223,,11,51,066,,12,13,108,*69
$BDGSV,3,2,09,14,78,109,,33,60,193,34,34,35,094,16,40,61,202,33*60
$BDGSV,3,3,09,59,50,130,32*5B
$GNRMC,112707.000,A,2234.43966,N,11355.98433,E,0.00,280.90,160421,,,A*7E
$GNVTG,280.90,T,,M,0.00,N,0.00,K,A*20
$GNZDA,112707.000,16,04,2021,00,00*48
$GPTXT,01,01,01,ANTENNA OPEN*25
$GNGGA,112708.000,2234.43949,N,11355.98430,E,1,09,4.4,29.3,M,0.0,M,,*4F
$GNGLL,2234.43949,N,11355.98430,E,112708.000,A,A*4B
$GPGSA,A,3,17,28,194,199,,,,,,,,,5.6,4.4,3.5*36
$BDGSA,A,3,07,33,34,40,59,,,,,,,,5.6,4.4,3.5*2E
$GPGSV,3,1,12,02,42,324,,05,31,230,,06,45,017,,09,26,069,*7C
$GPGSV,3,2,12,12,31,301,,14,08,165,10,17,43,112,21,19,61,085,*74
$GPGSV,3,3,12,28,16,170,10,193,58,097,,194,21,168,15,199,60,149,26*43
$BDGSV,3,1,09,07,45,183,25,10,59,223,,11,51,066,,12,13,108,*6A
$BDGSV,3,2,09,14,78,109,,33,60,193,34,34,35,094,16,40,61,202,32*61
$BDGSV,3,3,09,59,50,130,32*5B
$GNRMC,112708.000,A,2234.43949,N,11355.98430,E,0.00,280.90,160421,,,A*7F
$GNVTG,280.90,T,,M,0.00,N,0.00,K,A*20
$GNZDA,112708.000,16,04,2021,00,00*47
$GPTXT,01,01,01,ANTENNA OPEN*25
$GNGGA,112709.000,2234.43920,N,11355.98434,E,1,08,4.4,29.4,M,0.0,M,,*43
$GNGLL,2234.43920,N,11355.98434,E,112709.000,A,A*41
$GPGSA,A,3,17,28,199,,,,,,,,,,5.7,4.4,3.6*08
$BDGSA,A,3,07,33,34,40,59,,,,,,,,5.7,4.4,3.6*2C
$GPGSV,3,1,12,02,42,324,,05,31,230,,06,45,017,,09,26,069,*7C
$GPGSV,3,2,12,12,31,301,,14,08,165,10,17,43,112,21,19,61,085,*74
$GPGSV,3,3,12,28,16,170,10,193,58,097,,194,21,168,,199,60,149,25*44
$BDGSV,3,1,09,07,45,183,25,10,59,223,,11,51,066,,12,13,108,*6A
$BDGSV,3,2,09,14,78,109,,33,60,193,34,34,35,094,16,40,61,202,32*61
$BDGSV,3,3,09,59,50,130,32*5B
$GNRMC,112709.000,A,2234.43920,N,11355.98434,E,0.61,280.90,160421,,,A*72
$GNVTG,280.90,T,,M,0.61,N,1.12,K,A*25
$GNZDA,112709.000,16,04,2021,00,00*46
$GPTXT,01,01,01,ANTENNA OPEN*25
$GNGGA,112710.000,2234.43905,N,11355.98436,E,1,08,4.4,29.7,M,0.0,M,,*4D
$GNGLL,2234.43905,N,11355.98436,E,112710.000,A,A*4C
$GPGSA,A,3,17,28,199,,,,,,,,,,5.7,4.4,3.6*08
$BDGSA,A,3,07,33,34,40,59,,,,,,,,5.7,4.4,3.6*2C
$GPGSV,3,1,12,02,42,324,,05,31,230,,06,45,017,,09,26,069,*7C
$GPGSV,3,2,12,12,31,301,,14,08,165,10,17,43,112,21,19,61,085,*74
$GPGSV,3,3,12,28,16,170,10,193,58,097,,194,21,168,,199,60,149,25*44
$BDGSV,3,1,09,07,45,183,25,10,59,222,,11,51,066,,12,13,108,*6B
$BDGSV,3,2,09,14,78,109,,33,60,193,34,34,35,094,16,40,61,202,32*61
$BDGSV,3,3,09,59,50,130,32*5B
$GNRMC,112710.000,A,2234.43905,N,11355.98436,E,0.00,280.90,160421,,,A*78
$GNVTG,280.90,T,,M,0.00,N,0.00,K,A*20
$GNZDA,112710.000,16,04,2021,00,00*4E
$GPTXT,01,01,01,ANTENNA OPEN*25
$GNGGA,112711.000,2234.43897,N,11355.98437,E,1,07,4.7,29.9,M,0.0,M,,*45
$GNGLL,2234.43897,N,11355.98437,E,112711.000,A,A*46
$GPGSA,A,3,17,199,,,,,,,,,,,8.3,4.7,6.8*03
$BDGSA,A,3,07,33,34,40,59,,,,,,,,8.3,4.7,6.8*2D
$GPGSV,3,1,12,02,42,324,,05,31,230,,06,45,017,,09,26,069,*7C
$GPGSV,3,2,12,12,31,301,,14,08,165,10,17,43,112,21,19,61,085,*74
$GPGSV,3,3,12,28,16,170,04,193,58,097,,194,21,168,,199,60,149,25*41
$BDGSV,3,1,09,07,45,183,25,10,59,222,,11,51,066,,12,13,108,*6B
$BDGSV,3,2,09,14,78,109,,33,60,193,34,34,35,094,16,40,61,202,32*61
$BDGSV,3,3,09,59,50,130,32*5B
$GNRMC,112711.000,A,2234.43897,N,11355.98437,E,0.00,280.90,160421,,,A*72
$GNVTG,280.90,T,,M,0.00,N,0.00,K,A*20
$GNZDA,112711.000,16,04,2021,00,00*4F
$GPTXT,01,01,01,ANTENNA OPEN*25
$GNGGA,112712.000,2234.43890,N,11355.98437,E,1,07,4.7,30.1,M,0.0,M,,*41
$GNGLL,2234.43890,N,11355.98437,E,112712.000,A,A*42
$GPGSA,A,3,17,199,,,,,,,,,,,8.3,4.7,6.8*03
$BDGSA,A,3,07,33,34,40,59,,,,,,,,8.3,4.7,6.8*2D
$GPGSV,3,1,12,02,42,324,,05,31,230,,06,45,017,,09,26,069,*7C
$GPGSV,3,2,12,12,31,301,,14,08,165,10,17,43,112,21,19,61,085,*74
$GPGSV,3,3,12,28,16,170,04,193,58,097,,194,21,168,,199,60,149,25*41
$BDGSV,3,1,09,07,45,183,25,10,59,222,,11,51,066,,12,13,108,*6B
$BDGSV,3,2,09,14,78,108,,33,60,193,35,34,35,094,16,40,61,202,32*61
$BDGSV,3,3,09,59,50,130,32*5B
$GNRMC,112712.000,A,2234.43890,N,11355.98437,E,0.00,280.90,160421,,,A*76
$GNVTG,280.90,T,,M,0.00,N,0.00,K,A*20
$GNZDA,112712.000,16,04,2021,00,00*4C
$GPTXT,01,01,01,ANTENNA OPEN*25
$GNGGA,112713.000,2234.43883,N,11355.98437,E,1,07,4.7,30.2,M,0.0,M,,*41
$GNGLL,2234.43883,N,11355.98437,E,112713.000,A,A*41
$GPGSA,A,3,17,199,,,,,,,,,,,8.3,4.7,6.8*03
$BDGSA,A,3,07,33,34,40,59,,,,,,,,8.3,4.7,6.8*2D
$GPGSV,3,1,12,02,42,324,,05,31,230,,06,45,017,,09,26,069,*7C
$GPGSV,3,2,12,12,31,301,,14,08,165,10,17,43,112,21,19,61,085,*74
$GPGSV,3,3,12,28,16,170,04,193,58,097,,194,21,168,,199,60,149,26*42
$BDGSV,3,1,09,07,45,183,25,10,59,222,,11,51,066,,12,13,108,*6B
$BDGSV,3,2,09,14,78,108,,33,60,193,35,34,35,094,16,40,61,202,34*67
$BDGSV,3,3,09,59,50,130,31*58
$GNRMC,112713.000,A,2234.43883,N,11355.98437,E,0.00,280.90,160421,,,A*75
$GNVTG,280.90,T,,M,0.00,N,0.00,K,A*20
$GNZDA,112713.000,16,04,2021,00,00*4D
$GPTXT,01,01,01,ANTENNA OPEN*25
$GNGGA,112714.000,2234.43908,N,11355.98440,E,1,08,4.5,30.4,M,0.0,M,,*4F
$GNGLL,2234.43908,N,11355.98440,E,112714.000,A,A*44
$GPGSA,A,3,17,194,199,,,,,,,,,,6.0,4.5,4.0*3A
$BDGSA,A,3,07,33,34,40,59,,,,,,,,6.0,4.5,4.0*28
$GPGSV,3,1,12,02,42,324,,05,31,230,,06,45,017,,09,26,069,*7C
$GPGSV,3,2,12,12,31,301,,14,08,165,10,17,43,112,21,19,61,085,*74
$GPGSV,3,3,12,28,16,170,04,193,58,097,,194,21,168,10,199,60,149,26*43
$BDGSV,3,1,09,07,45,183,25,10,59,222,,11,51,066,,12,13,108,*6B
$BDGSV,3,2,09,14,78,108,,33,60,193,35,34,35,094,17,40,61,202,34*66
$BDGSV,3,3,09,59,50,130,31*58
$GNRMC,112714.000,A,2234.43908,N,11355.98440,E,1.48,280.90,160421,,,A*7D
$GNVTG,280.90,T,,M,1.48,N,2.74,K,A*2C
$GNZDA,112714.000,16,04,2021,00,00*4A
$GPTXT,01,01,01,ANTENNA OPEN*25
$GNGGA,112715.000,2234.43940,N,11355.98410,E,1,08,4.5,29.6,M,0.0,M,,*4D
$GNGLL,2234.43940,N,11355.98410,E,112715.000,A,A*4C
$GPGSA,A,3,17,194,199,,,,,,,,,,6.0,4.5,4.0*3A
$BDGSA,A,3,07,33,34,40,59,,,,,,,,6.0,4.5,4.0*28
$GPGSV,3,1,12,02,42,324,,05,31,230,,06,45,017,,09,26,069,*7C
$GPGSV,3,2,12,12,31,301,,14,08,165,10,17,43,112,21,19,61,085,*74
$GPGSV,3,3,12,28,16,170,10,193,58,097,,194,21,168,10,199,60,149,26*46
$BDGSV,3,1,09,07,45,183,25,10,59,222,,11,51,066,,12,13,108,*6B
$BDGSV,3,2,09,14,78,108,,33,60,193,33,34,35,094,17,40,61,202,33*67
$BDGSV,3,3,09,59,50,130,31*58
$GNRMC,112715.000,A,2234.43940,N,11355.98410,E,1.93,280.90,160421,,,A*73
$GNVTG,280.90,T,,M,1.93,N,3.57,K,A*2A
$GNZDA,112715.000,16,04,2021,00,00*4B
$GPTXT,01,01,01,ANTENNA OPEN*25
$GNGGA,112716.000,2234.43977,N,11355.98362,E,1,09,4.4,28.7,M,0.0,M,,*48
$GNGLL,2234.43977,N,11355.98362,E,112716.000,A,A*49
$GPGSA,A,3,17,28,194,199,,,,,,,,,5.7,4.4,3.5*37
$BDGSA,A,3,07,33,34,40,59,,,,,,,,5.7,4.4,3.5*2F
$GPGSV,3,1,12,02,42,324,,05,31,230,,06,45,017,,09,26,069,*7C
$GPGSV,3,2,12,12,31,301,,14,08,165,11,17,43,112,21,19,61,085,*75
$GPGSV,3,3,12,28,16,170,21,193,58,097,,194,21,168,10,199,60,149,26*44
$BDGSV,3,1,09,07,45,183,24,10,59,222,,11,51,066,,12,13,108,*6A
$BDGSV,3,2,09,14,78,108,,33,60,193,26,34,35,094,22,40,61,202,26*61
$BDGSV,3,3,09,59,50,130,31*58
$GNRMC,112716.000,A,2234.43977,N,11355.98362,E,2.17,311.81,160421,,,A*70
$GNVTG,311.81,T,,M,2.17,N,4.02,K,A*2B
$GNZDA,112716.000,16,04,2021,00,00*48
$GPTXT,01,01,01,ANTENNA OPEN*25
