b'\x002,36,59,50,130,39*5E\r\n$GNRMC,111809.000,A,2234.42113,N,11355.98273,E,0.00,328.71,160421,,,A*79\r\n$GNVTG,328.71,T,,M,0.00'


b'\x00\x00\x00\n$BDGSV,3,3,11,34,37,090,20,40,63,202,36,59,50,130,39*55\r\n$GNRMC,111847.000,A,2234.42064,N,11355.98287,E,0.00,328.71,'


b'$GNGGA,111958.000,2234.42060,N,11355.98360,E,1,16,1.8,57.7,M,0.0,M,,*4C\r\n$GNGLL,2234.42060,N,11355.98360,E,111958.000,A,'


刷入成功
b'\x00\x0013,17,45,108,17*7E\r\n$GPGSV,4,3,13,19,62,079,,28,18,171,28,193,57,099,17,194,22,168,26*78\r\n$GPGSV,4,4,13,199,60,149,26*'


刷入成功
b'\x00\x000\r\n$GPGSA,A,3,14,17,28,194,199,,,,,,,,3.1,2.3,2.0*37\r\n$BDGSA,A,3,07,10,11,12,14,33,40,59,,,,,3.1,2.3,2.0*2A\r\n$GPGSV,4,'


b'\x00\x00)b\xaa\xcar\x8abj\xb10.0,M,,*4E\r\n$GNGLL,2234.42170,N,11355.98416,E,112239.000,A,A*4B\r\n$GPGSA,A,3,09,14,17,28,193,194,199,,,,,,2.6,1.9,1.7*0E\r\n$BDGSA,A,3,07,10,12,14,33,40,59,,,,,,2.6,1.9,1.7*21\r\n$GPGSV,4,1,13,02,41,321,,04,05,046,,05,29,229,,06,45,014,*7F\r\n$GPGSV,4,2,13,09,27,071,17,12,30,302,,14,09,166,23,17,45,109,30*70\r\n$GPGSV,4,3,13,19,61,080,,28,18,170,17,193,58,'


刷入成功
b'\x00\x0034,35,094,,40,61,203,36*6D\r\n$BDGSV,3,3,09,59,50,130,31*58\r\n$GNRMC,112744.002,A,2234.42752,N,11355.97994,E,0.55,12.76,160421,,,A*4D\r\n$GNVTG,12.76,T,,M,0.55,N,1.02,K,A*12\r\n$GNZDA,112744.002,16,04,2021,00,00*4D\r\n$GPTXT,01,01,01,ANTENNA OPEN*25\r\n$GNGGA,112745.000,2234.42753,N,11355.97963,E,1,09,4.2,27.3,M,0.0,M,,*4E\r\n$GNGLL,2234.42753,N,11355.97963,E,112745.000,A,'


刷入成功
b'\x005,25,40,60,203,37*69\r\n$BDGSV,3,3,09,59,50,130,33*5A\r\n$GNRMC,112852.000,A,2234.42987,N,11355.97696,E,0.00,308.49,160421,,,A*78\r\n$GNVTG,308.49,T,,M,0.00,N,0.00,K,A*25\r\n$GNZDA,112852.000,16,04,2021,00,00*47\r\n$GPTXT,01,01,01,ANTENNA OPEN*25\r\n$GNGGA,112853.000,2234.42979,N,11355.97697,E,1,13,3.4,33.1,M,0.0,M,,*49\r\n$GNGLL,2234.42979,N,11355.97697,E,112853.000,A,'


entry 0x40080610
b'$GNGGA,112938.000,2234.42905,N,11355.97805,E,1,14,2.1,35.8,M,0.0,M,,*47\r\n$GNGLL,2234.42905,N,11355.97805,E,112938.000,A,A*4A\r\n$GPGSA,A,3,09,14,17,28,193,194,199,,,,,,2.7,2.1,1.7*04\r\n$BDGSA,A,3,07,12,14,33,34,40,59,,,,,,2.7,2.1,1.7*2D\r\n$GPGSV,3,1,12,02,42,325,,05,32,231,,06,44,018,,09,26,068,16*77\r\n$GPGSV,3,2,12,12,32,299,,14,07,165,23,17,43,113,27,19,60,088,'


刷入成功
b'$GNGGA,113043.000,2234.42862,N,11355.97919,E,1,14,2.7,39.8,M,0.0,M,,*45\r\n$GNGLL,2234.42862,N,11355.97919,E,113043.000,A,A*42\r\n$GPGSA,A,3,14,17,28,193,194,199,,,,,,,3.5,2.7,2.2*0E\r\n$BDGSA,A,3,07,11,12,14,33,34,40,59,,,,,3.5,2.7,2.2*2E\r\n$GPGSV,3,1,12,02,42,326,,05,32,232,,06,44,019,,09,26,067,*7E\r\n$GPGSV,3,2,12,12,32,299,,14,06,165,21,17,42,114,26,19,60,089,23'


:0x00
mode:DIO, clock div:2
load:0x3fff0018,len:4
load:0x3fff001c,len:4308
load:0x40078000,len:12740
ho 0 tail 12 room 4
load:0x40080400,len:3248
entry 0x40080610

刷入成功
b'\x00\x00zA\x159\xa925\r\n$GNGGA,113201.000,2234.42508,N,11355.98063,E,1,14,2.7,42.4,M,0.0,M,,*4B\r\n$GNGLL,2234.42508,N,11355.98063,E,113201.000,A,A*4C\r\n$GPGSA,A,3,14,17,28,193,194,199,,,,,,,3.5,2.7,2.2*0E\r\n$BDGSA,A,3,07,11,12,14,33,34,40,59,,,,,3.5,2.7,2.2*2E\r\n$GPGSV,3,1,12,02,42,327,,05,33,232,,06,44,020,,09,26,067,*74\r\n$GPGSV,3,2,12,12,32,298,,14,06,165,19,17,42,115,27,19,60,090,22A*75\r\n$GNVTG,129.95,T,,M,0.00,N,0.00,K,A*25\r\n$GNZDA,113205.000,16,04,2021,00,00*4E\r\n$GPTXT,01,01,01,ANTENNA OPEN*25\r\n'


刷入成功
b'$GNGGA,113312.000,2234.42457,N,11355.98087,E,1,13,2.7,42.5,M,0.0,M,,*4F\r\n$GNGLL,2234.42457,N,11355.98087,E,113312.000,A,A*4E\r\n$GPGSA,A,3,14,17,28,193,194,199,,,,,,,3.6,2.7,2.3*0C\r\n$BDGSA,A,3,07,11,14,33,34,40,59,,,,,,3.6,2.7,2.3*2F\r\n$GPGSV,3,1,12,02,42,327,,05,33,232,,06,44,021,,09,26,066,*74\r\n$GPGSV,3,2,12,12,32,297,,14,06,165,21,17,42,115,28,19,60,091,25*7.42461,N,11355.98083,E,1,13,2.7,42.4,M,0.0,M,,*4A\r\n
$GNGLL,2234.42461,N,11355.98083,E,113317.000,A,A*4A\r\n
$GPGSA,A,3,14,17,'


ho 0 tail 12 room 4
load:0x40080400,len:3248
entry 0x40080610
b'$GNGGA,113442.000,2234.42603,N,11355.97962,E,1,14,2.7,40.1,M,0.0,M,,*42\r\n$GNGLL,2234.42603,N,11355.97962,E,113442.000,A,A*42\r\n$GPGSA,A,3,14,17,28,193,194,199,,,,,,,3.5,2.7,2.2*0E\r\n$BDGSA,A,3,07,11,12,14,33,34,40,59,,,,,3.5,2.7,2.2*2E\r\n$GPGSV,3,1,12,02,43,328,,05,34,233,,06,44,022,,09,25,066,*7C\r\n$GPGSV,3,2,12,12,32,297,,14,05,164,22,17,41,116,25,19,60,092,13'


load:0x40080400,len:3248
entry 0x40080610

刷入成功
b'\x00\x00\xb036*66\r\n$BDGSV,3,3,09,59,50,130,32*5B\r\n$GNRMC,113552.000,A,2234.42540,N,11355.98066,E,0.00,157.58,160421,,,A*7D\r\n$GNVTG,157.58,T,,M,0.00,N,0.00,K,A*2D\r\n$GNZDA,113552.000,16,04,2021,00,00*4B\r\n$GPTXT,01,01,01,ANTENNA OPEN*25\r\n$GNGGA,113553.000,2234.42541,N,11355.98068,E,1,13,2.8,40.0,M,0.0,M,,*43\r\n$GNGLL,2234.42541,N,11355.98068,E,113553.000,A,'


b'\x00\x00\t\x82\x82b\x92\x92\x9a\xa2r\xa2\x92\xb2\x92\xa2br\xb111355.98012,E,1,14,1.9,38.6,M,0.0,M,,*4B\r\n$GNGLL,2234.42624,N,11355.98012,E,113648.000,A,A*4E\r\n$GPGSA,A,3,09,17,28,193,194,199,,,,,,,2.5,1.9,1.7*08\r\n$BDGSA,A,3,07,11,12,14,33,34,40,59,,,,,2.5,1.9,1.7*24\r\n$GPGSV,3,1,11,02,43,329,,05,34,234,,06,44,022,,09,25,065,16*7D\r\n$GPGSV,3,2,11,12,33,296,,17,41,117,27,19,59,094,20,28,12,169,28*71\r\n$GPGS'


load:0x40080400,len:3248
entry 0x40080610

刷入成功
b'\x00\x000.00,324.37,160421,,,A*7B\r\n$GNVTG,324.37,T,,M,0.00,N,0.00,K,A*22\r\n$GNZDA,113731.000,16,04,2021,00,00*4C\r\n$GPTXT,01,01,01,ANTENNA OPEN*25\r\n$GNGGA,113732.000,2234.42838,N,11355.97963,E,1,14,1.8,37.0,M,0.0,M,,*4C\r\n$GNGLL,2234.42838,N,11355.97963,E,113732.000,A,'


b'$GNGGA,113804.000,2234.42697,N,11355.98049,E,1,14,1.8,38.5,M,0.0,M,,*49\r\n$GNGLL,2234.42697,N,11355.98049,E,113804.000,A,A*4E\r\n$GPGSA,A,3,09,17,28,193,194,199,,,,,,,2.5,1.8,1.7*09\r\n$BDGSA,A,3,07,11,12,14,33,34,40,59,,,,,2.5,1.8,1.7*25\r\n$GPGSV,3,1,11,02,43,330,,05,35,234,,06,44,023,,09,25,064,12*70\r\n$GPGSV,3,2,11,12,33,295,,17,40,118,22,19,59,096,23,28,11,169,'


b'$GNGLL,2234.42360,N,11355.99179,E,123319.000,A,A*44\r\n'
0
0
A
05


A
05




刷入成功
b'$GNGLL,2234.42416,N,11355.99200,E,123405.000,A,A*45\r\n'
["b'$GPGSA", 'A', '3', '05', '13', '17', '19', '193', '194', '199', '', '', '', '', '', '2.2', '1.2', "1.8*07\\r\\n'"]
0
0
A
05
